[
  {
    "country": "IN",
    "name": "Delhi",
    "lat": "28.7041",
    "lng": "77.1025"
  },
  {
    "country": "IN",
    "name": "Mumbai",
    "lat": "19.0760",
    "lng": "72.8777"
  },
  {
    "country": "IN",
    "name": "Bengaluru",
    "lat": "12.9716",
    "lng": "77.5946"
  },
  {
    "country": "IN",
    "name": "Hyderabad",
    "lat": "17.3850",
    "lng": "78.4867"
  },
  {
    "country": "IN",
    "name": "Chennai",
    "lat": "13.0878",
    "lng": "80.2785"
  },
  {
    "country": "IN",
    "name": "Kolkata",
    "lat": "22.5726",
    "lng": "88.3639"
  },
  {
    "country": "IN",
    "name": "Pune",
    "lat": "18.5204",
    "lng": "73.8567"
  },
  {
    "country": "IN",
    "name": "Ahmedabad",
    "lat": "23.0225",
    "lng": "72.5714"
  },
  {
    "country": "IN",
    "name": "Jaipur",
    "lat": "26.9124",
    "lng": "75.7873"
  },
  {
    "country": "IN",
    "name": "Lucknow",
    "lat": "26.8467",
    "lng": "80.9462"
  },
  {
    "country": "IN",
    "name": "Surat",
    "lat": "21.1702",
    "lng": "72.8311"
  },
  {
    "country": "IN",
    "name": "Kanpur",
    "lat": "26.4499",
    "lng": "80.3319"
  },
  {
    "country": "IN",
    "name": "Nagpur",
    "lat": "21.1458",
    "lng": "79.0882"
  },
  {
    "country": "IN",
    "name": "Indore",
    "lat": "22.7196",
    "lng": "75.8577"
  },
  {
    "country": "IN",
    "name": "Bhopal",
    "lat": "23.2599",
    "lng": "77.4126"
  },
  {
    "country": "IN",
    "name": "Visakhapatnam",
    "lat": "17.6868",
    "lng": "83.2185"
  },
  {
    "country": "IN",
    "name": "Patna",
    "lat": "25.5941",
    "lng": "85.1376"
  },
  {
    "country": "IN",
    "name": "Chandigarh",
    "lat": "30.7333",
    "lng": "76.7794"
  },
  {
    "country": "IN",
    "name": "Kochi",
    "lat": "9.9312",
    "lng": "76.2673"
  },
  {
    "country": "IN",
    "name": "Guwahati",
    "lat": "26.1445",
    "lng": "91.7362"
  },
  {
    "country": "IN",
    "name": "Mysuru",
    "lat": "12.2958",
    "lng": "76.6394"
  },
  {
    "country": "IN",
    "name": "Madurai",
    "lat": "9.9252",
    "lng": "78.1198"
  },
  {
    "country": "IN",
    "name": "Coimbatore",
    "lat": "11.0168",
    "lng": "76.9558"
  },
  {
    "country": "IN",
    "name": "Thiruvananthapuram",
    "lat": "8.5241",
    "lng": "76.9366"
  },
  {
    "country": "IN",
    "name": "Varanasi",
    "lat": "25.3176",
    "lng": "82.9739"
  },
  {
    "country": "IN",
    "name": "Amritsar",
    "lat": "31.6340",
    "lng": "74.8723"
  },
  {
    "country": "IN",
    "name": "Jodhpur",
    "lat": "26.2389",
    "lng": "73.0243"
  },
  {
    "country": "IN",
    "name": "Udaipur",
    "lat": "24.5854",
    "lng": "73.7125"
  },
  {
    "country": "IN",
    "name": "Agra",
    "lat": "27.1767",
    "lng": "78.0081"
  },
  {
    "country": "IN",
    "name": "Prayagraj",
    "lat": "25.4358",
    "lng": "81.8463"
  },
  {
    "country": "IN",
    "name": "Dehradun",
    "lat": "30.3165",
    "lng": "78.0322"
  },
  {
    "country": "IN",
    "name": "Shimla",
    "lat": "31.1048",
    "lng": "77.1734"
  },
  {
    "country": "IN",
    "name": "Manali",
    "lat": "32.2396",
    "lng": "77.1887"
  },
  {
    "country": "IN",
    "name": "Gangtok",
    "lat": "27.3314",
    "lng": "88.6138"
  },
  {
    "country": "IN",
    "name": "Bhubaneswar",
    "lat": "20.2961",
    "lng": "85.8245"
  },
  {
    "country": "IN",
    "name": "Ranchi",
    "lat": "23.3441",
    "lng": "85.3096"
  },
  {
    "country": "IN",
    "name": "Jamshedpur",
    "lat": "22.8046",
    "lng": "86.2029"
  },
  {
    "country": "IN",
    "name": "Guntur",
    "lat": "16.3067",
    "lng": "80.4365"
  },
  {
    "country": "IN",
    "name": "Mangaluru",
    "lat": "12.9141",
    "lng": "74.8560"
  },
  {
    "country": "IN",
    "name": "Puducherry",
    "lat": "11.9416",
    "lng": "79.8083"
  },
  {
    "country": "IN",
    "name": "Darjeeling",
    "lat": "27.0410",
    "lng": "88.2663"
  },
  {
    "country": "IN",
    "name": "Srinagar",
    "lat": "34.0837",
    "lng": "74.7973"
  },
  {
    "country": "IN",
    "name": "Leh",
    "lat": "34.1526",
    "lng": "77.5771"
  }
]